{"type":"FeatureCollection","features":[{"type":"Feature","properties":{"STATION":"11TH STREET","difference":39.0609621,"STFIPS":"42","STR_ADD":"11TH AND MARKET ST","RTS_SRVD":"MARKET-FRANKFORD LINE","LONGTUDE":-75.1583018,"LATITUDE":39.9517252,"CITY":"PHILADELPHIA","UZA":"PHILADELPHIA, PA-NJ-DE-MD","UACODE":"69076","ZIPCODE":"19107","STATUS":3,"SOURCE":"DOT","VERSION":"03","REVISION":null},"geometry":{"type":"Point","coordinates":[1657311.6588835,193960.5351948]}},{"type":"Feature","properties":{"STATION":"15TH STREET","difference":88.9111331,"STFIPS":"42","STR_ADD":"15TH AND MARKET ST","RTS_SRVD":"MARKET-FRANKFORD LINE","LONGTUDE":-75.1652474,"LATITUDE":39.9526247,"CITY":"PHILADELPHIA","UZA":"PHILADELPHIA, PA-NJ-DE-MD","UACODE":"69076","ZIPCODE":"19102","STATUS":3,"SOURCE":"DOT","VERSION":"03","REVISION":null},"geometry":{"type":"Point","coordinates":[1656747.687243,193919.7226016]}},{"type":"Feature","properties":{"STATION":"2ND STREET","difference":-64.243885,"STFIPS":"42","STR_ADD":"2ND AND MARKET ST","RTS_SRVD":"MARKET-FRANKFORD LINE","LONGTUDE":-75.1437405,"LATITUDE":39.949889,"CITY":"PHILADELPHIA","UZA":"PHILADELPHIA, PA-NJ-DE-MD","UACODE":"69076","ZIPCODE":"19106","STATUS":3,"SOURCE":"DOT","VERSION":"03","REVISION":null},"geometry":{"type":"Point","coordinates":[1658492.7711143,194051.2935394]}},{"type":"Feature","properties":{"STATION":"34TH STREET","difference":49.3310368,"STFIPS":"42","STR_ADD":"34TH AND MARKET ST","RTS_SRVD":"MARKET-FRANKFORD LINE","LONGTUDE":-75.1914303,"LATITUDE":39.9559087,"CITY":"PHILADELPHIA","UZA":"PHILADELPHIA, PA-NJ-DE-MD","UACODE":"69076","ZIPCODE":"19104","STATUS":3,"SOURCE":"DOT","VERSION":"03","REVISION":null},"geometry":{"type":"Point","coordinates":[1654624.4100809,193755.441175]}},{"type":"Feature","properties":{"STATION":"40TH STREET","difference":-2.3481508,"STFIPS":"42","STR_ADD":"40TH AND MARKET ST","RTS_SRVD":"MARKET-FRANKFORD LINE","LONGTUDE":-75.2018984,"LATITUDE":39.9572114,"CITY":"PHILADELPHIA","UZA":"PHILADELPHIA, PA-NJ-DE-MD","UACODE":"69076","ZIPCODE":"19104","STATUS":3,"SOURCE":"DOT","VERSION":"03","REVISION":null},"geometry":{"type":"Point","coordinates":[1653775.7682962,193688.9033054]}},{"type":"Feature","properties":{"STATION":"46TH STREET","difference":9.5462266,"STFIPS":"42","STR_ADD":"46TH AND MARKET ST","RTS_SRVD":"MARKET-FRANKFORD LINE","LONGTUDE":-75.2130629,"LATITUDE":39.9585334,"CITY":"PHILADELPHIA","UZA":"PHILADELPHIA, PA-NJ-DE-MD","UACODE":"69076","ZIPCODE":"19104","STATUS":3,"SOURCE":"DOT","VERSION":"03","REVISION":null},"geometry":{"type":"Point","coordinates":[1652872.3284305,193611.2394462]}},{"type":"Feature","properties":{"STATION":"52ND STREET","difference":-7.5591336,"STFIPS":"42","STR_ADD":"52ND AND MARKET ST","RTS_SRVD":"MARKET-FRANKFORD LINE","LONGTUDE":-75.2248714,"LATITUDE":39.9600182,"CITY":"PHILADELPHIA","UZA":"PHILADELPHIA, PA-NJ-DE-MD","UACODE":"69076","ZIPCODE":"19139","STATUS":3,"SOURCE":"DOT","VERSION":"03","REVISION":null},"geometry":{"type":"Point","coordinates":[1651914.6642436,193537.988909]}},{"type":"Feature","properties":{"STATION":"56TH STREET","difference":-6.4779055,"STFIPS":"42","STR_ADD":"56TH AND MARKET ST","RTS_SRVD":"MARKET-FRANKFORD LINE","LONGTUDE":-75.2328312,"LATITUDE":39.9609674,"CITY":"PHILADELPHIA","UZA":"PHILADELPHIA, PA-NJ-DE-MD","UACODE":"69076","ZIPCODE":"19139","STATUS":3,"SOURCE":"DOT","VERSION":"03","REVISION":null},"geometry":{"type":"Point","coordinates":[1651270.3854467,193483.4767199]}},{"type":"Feature","properties":{"STATION":"5TH STREET","difference":-59.3124912,"STFIPS":"42","STR_ADD":"5TH AND MARKET ST","RTS_SRVD":"MARKET-FRANKFORD LINE","LONGTUDE":-75.1489182,"LATITUDE":39.9505529,"CITY":"PHILADELPHIA","UZA":"PHILADELPHIA, PA-NJ-DE-MD","UACODE":"69076","ZIPCODE":"19106","STATUS":3,"SOURCE":"DOT","VERSION":"03","REVISION":null},"geometry":{"type":"Point","coordinates":[1658072.5380545,194020.1011817]}},{"type":"Feature","properties":{"STATION":"60TH STREET","difference":-3.9423822,"STFIPS":"42","STR_ADD":"60TH AND MARKET ST","RTS_SRVD":"MARKET-FRANKFORD LINE","LONGTUDE":-75.2406776,"LATITUDE":39.9619646,"CITY":"PHILADELPHIA","UZA":"PHILADELPHIA, PA-NJ-DE-MD","UACODE":"69076","ZIPCODE":"19139","STATUS":3,"SOURCE":"DOT","VERSION":"03","REVISION":null},"geometry":{"type":"Point","coordinates":[1650633.7956363,193436.0024049]}},{"type":"Feature","properties":{"STATION":"63RD STREET","difference":0.6039388,"STFIPS":"42","STR_ADD":"63RD AND MARKET ST","RTS_SRVD":"MARKET-FRANKFORD LINE","LONGTUDE":-75.2468173,"LATITUDE":39.962728,"CITY":"PHILADELPHIA","UZA":"PHILADELPHIA, PA-NJ-DE-MD","UACODE":"69076","ZIPCODE":"19139","STATUS":3,"SOURCE":"DOT","VERSION":"03","REVISION":null},"geometry":{"type":"Point","coordinates":[1650136.1111699,193397.1706107]}},{"type":"Feature","properties":{"STATION":"ALLEGHENY","difference":2.8436954,"STFIPS":"42","STR_ADD":"ALLEGHENY AVE AND BROAD ST","RTS_SRVD":"BROAD STREET LINE","LONGTUDE":-75.1529935,"LATITUDE":40.0015683,"CITY":"PHILADELPHIA","UZA":"PHILADELPHIA, PA-NJ-DE-MD","UACODE":"69076","ZIPCODE":"19140","STATUS":3,"SOURCE":"DOT","VERSION":"03","REVISION":null},"geometry":{"type":"Point","coordinates":[1656494.5946613,199112.8045602]}},{"type":"Feature","properties":{"STATION":"ALLEGHENY","difference":2.8436954,"STFIPS":"42","STR_ADD":"ALLEGHENY AND KENSINGTON AVE","RTS_SRVD":"MARKET-FRANKFORD LINE","LONGTUDE":-75.1133655,"LATITUDE":39.9965045,"CITY":"PHILADELPHIA","UZA":"PHILADELPHIA, PA-NJ-DE-MD","UACODE":"69076","ZIPCODE":"19134","STATUS":3,"SOURCE":"DOT","VERSION":"03","REVISION":null},"geometry":{"type":"Point","coordinates":[1659708.3300299,199353.153301]}},{"type":"Feature","properties":{"STATION":"BERKS","difference":-49.4054243,"STFIPS":"42","STR_ADD":"BERKS AND FRONT ST","RTS_SRVD":"MARKET-FRANKFORD LINE","LONGTUDE":-75.133458,"LATITUDE":39.978695,"CITY":"PHILADELPHIA","UZA":"PHILADELPHIA, PA-NJ-DE-MD","UACODE":"69076","ZIPCODE":"19122","STATUS":3,"SOURCE":"DOT","VERSION":"03","REVISION":null},"geometry":{"type":"Point","coordinates":[1658582.6197665,197166.0908697]}},{"type":"Feature","properties":{"STATION":"CECIL B MOORE","difference":27.9886382,"STFIPS":"42","STR_ADD":"CECIL B MOORE AVE AND BROAD ST","RTS_SRVD":"BROAD STREET LINE","LONGTUDE":-75.1578448,"LATITUDE":39.9787368,"CITY":"PHILADELPHIA","UZA":"PHILADELPHIA, PA-NJ-DE-MD","UACODE":"69076","ZIPCODE":"19121","STATUS":3,"SOURCE":"DOT","VERSION":"03","REVISION":null},"geometry":{"type":"Point","coordinates":[1656680.2824785,196706.7820924]}},{"type":"Feature","properties":{"STATION":"CHURCH","difference":7.601908,"STFIPS":"42","STR_ADD":"CHURCH ST AND FRANKFOR AVE","RTS_SRVD":"MARKET-FRANKFORD LINE","LONGTUDE":-75.0886816,"LATITUDE":40.0110325,"CITY":"PHILADELPHIA","UZA":"PHILADELPHIA, PA-NJ-DE-MD","UACODE":"69076","ZIPCODE":"19124","STATUS":3,"SOURCE":"DOT","VERSION":"03","REVISION":null},"geometry":{"type":"Point","coordinates":[1661272.132525,201295.2656243]}},{"type":"Feature","properties":{"STATION":"ELLSWORTH-FEDERAL","difference":48.6526244,"STFIPS":"42","STR_ADD":"ELLSWORTH AND BROAD ST","RTS_SRVD":"BROAD STREET LINE","LONGTUDE":-75.1669528,"LATITUDE":39.9366659,"CITY":"PHILADELPHIA","UZA":"PHILADELPHIA, PA-NJ-DE-MD","UACODE":"69076","ZIPCODE":"19146","STATUS":3,"SOURCE":"DOT","VERSION":"03","REVISION":null},"geometry":{"type":"Point","coordinates":[1657008.6223545,192269.911037]}},{"type":"Feature","properties":{"STATION":"ERIE","difference":-0.0617437,"STFIPS":"42","STR_ADD":"ERIE AVE AND BROAD ST","RTS_SRVD":"BROAD STREET LINE","LONGTUDE":-75.1513193,"LATITUDE":40.0094101,"CITY":"PHILADELPHIA","UZA":"PHILADELPHIA, PA-NJ-DE-MD","UACODE":"69076","ZIPCODE":"19140","STATUS":3,"SOURCE":"DOT","VERSION":"03","REVISION":null},"geometry":{"type":"Point","coordinates":[1656431.3687901,199939.3349741]}},{"type":"Feature","properties":{"STATION":"ERIE-TORRESDALE","difference":-13.4925335,"STFIPS":"42","STR_ADD":"ERIE AND TORRESDALE AVE","RTS_SRVD":"MARKET-FRANKFORD LINE","LONGTUDE":-75.0964123,"LATITUDE":40.0058016,"CITY":"PHILADELPHIA","UZA":"PHILADELPHIA, PA-NJ-DE-MD","UACODE":"69076","ZIPCODE":"19124","STATUS":3,"SOURCE":"DOT","VERSION":"03","REVISION":null},"geometry":{"type":"Point","coordinates":[1660799.3412294,200617.9886059]}},{"type":"Feature","properties":{"STATION":"FAIRMOUNT","difference":20.5473793,"STFIPS":"42","STR_ADD":"FAIRMOUNT AVE AND BROAD ST","RTS_SRVD":"BROAD STREET LINE","LONGTUDE":-75.1603859,"LATITUDE":39.9670632,"CITY":"PHILADELPHIA","UZA":"PHILADELPHIA, PA-NJ-DE-MD","UACODE":"69076","ZIPCODE":"19130","STATUS":3,"SOURCE":"DOT","VERSION":"03","REVISION":null},"geometry":{"type":"Point","coordinates":[1656770.3802002,195475.4135666]}},{"type":"Feature","properties":{"STATION":"FERN ROCK TRANSPORTATION CENTER","difference":-14.1177603,"STFIPS":"42","STR_ADD":"NEDRO AVE E OF 10 ST","RTS_SRVD":"BROAD STREET LINE","LONGTUDE":-75.137068,"LATITUDE":40.0412561,"CITY":"PHILADELPHIA","UZA":"PHILADELPHIA, PA-NJ-DE-MD","UACODE":"69076","ZIPCODE":"19141","STATUS":3,"SOURCE":"DOT","VERSION":"03","REVISION":null},"geometry":{"type":"Point","coordinates":[1656754.7665929,203437.3953196]}},{"type":"Feature","properties":{"STATION":"FRANKFROD TRANSPORTATION CENTER","difference":-16.1679459,"STFIPS":"42","STR_ADD":"GRANITE ST AND FRANKFOR AVE","RTS_SRVD":"MARKET-FRANKFORD LINE","LONGTUDE":-75.0772455,"LATITUDE":40.0230893,"CITY":"PHILADELPHIA","UZA":"PHILADELPHIA, PA-NJ-DE-MD","UACODE":"69076","ZIPCODE":"19124","STATUS":3,"SOURCE":"DOT","VERSION":"03","REVISION":null},"geometry":{"type":"Point","coordinates":[1661864.3088396,202734.8344212]}},{"type":"Feature","properties":{"STATION":"HUNTING PARK","difference":-6.0870021,"STFIPS":"42","STR_ADD":"HUNTING PARK AVE AND BROAD ST","RTS_SRVD":"BROAD STREET LINE","LONGTUDE":-75.1496359,"LATITUDE":40.0169502,"CITY":"PHILADELPHIA","UZA":"PHILADELPHIA, PA-NJ-DE-MD","UACODE":"69076","ZIPCODE":"19140","STATUS":3,"SOURCE":"DOT","VERSION":"03","REVISION":null},"geometry":{"type":"Point","coordinates":[1656376.2790349,200735.4521073]}},{"type":"Feature","properties":{"STATION":"HUNTINGDON","difference":-11.5820444,"STFIPS":"42","STR_ADD":"HUNTINGDON ST AND KENSINGTON AVE","RTS_SRVD":"MARKET-FRANKFORD LINE","LONGTUDE":-75.1272532,"LATITUDE":39.9887254,"CITY":"PHILADELPHIA","UZA":"PHILADELPHIA, PA-NJ-DE-MD","UACODE":"69076","ZIPCODE":"19125","STATUS":3,"SOURCE":"DOT","VERSION":"03","REVISION":null},"geometry":{"type":"Point","coordinates":[1658818.3268669,198300.5798676]}},{"type":"Feature","properties":{"STATION":"LOGAN","difference":-1.7753249,"STFIPS":"42","STR_ADD":"LINDLEY AVE AND BROAD ST","RTS_SRVD":"BROAD STREET LINE","LONGTUDE":-75.1465946,"LATITUDE":40.0307001,"CITY":"PHILADELPHIA","UZA":"PHILADELPHIA, PA-NJ-DE-MD","UACODE":"69076","ZIPCODE":"19141","STATUS":3,"SOURCE":"DOT","VERSION":"03","REVISION":null},"geometry":{"type":"Point","coordinates":[1656273.5542285,202186.7024014]}},{"type":"Feature","properties":{"STATION":"LOMBARD-SOUTH","difference":-21.442271,"STFIPS":"42","STR_ADD":"SOUTH AND BROAD ST","RTS_SRVD":"BROAD STREET LINE","LONGTUDE":-75.1654542,"LATITUDE":39.9435165,"CITY":"PHILADELPHIA","UZA":"PHILADELPHIA, PA-NJ-DE-MD","UACODE":"69076","ZIPCODE":"19146","STATUS":3,"SOURCE":"DOT","VERSION":"03","REVISION":null},"geometry":{"type":"Point","coordinates":[1656956.4240283,192992.6777773]}},{"type":"Feature","properties":{"STATION":"MARGARET-ORTHODOX","difference":-13.7053461,"STFIPS":"42","STR_ADD":"MARGARET ST AND FRANKFOR AVE","RTS_SRVD":"MARKET-FRANKFORD LINE","LONGTUDE":-75.0838337,"LATITUDE":40.0166629,"CITY":"PHILADELPHIA","UZA":"PHILADELPHIA, PA-NJ-DE-MD","UACODE":"69076","ZIPCODE":"19124","STATUS":3,"SOURCE":"DOT","VERSION":"03","REVISION":null},"geometry":{"type":"Point","coordinates":[1661510.3300136,201958.1415774]}},{"type":"Feature","properties":{"STATION":"NORTH PHILADELPHIA","difference":-2.998443,"STFIPS":"42","STR_ADD":"GLENWOOD AVE AND BROAD ST","RTS_SRVD":"BROAD STREET LINE","LONGTUDE":-75.153876,"LATITUDE":39.9972793,"CITY":"PHILADELPHIA","UZA":"PHILADELPHIA, PA-NJ-DE-MD","UACODE":"69076","ZIPCODE":"19132","STATUS":3,"SOURCE":"DOT","VERSION":"03","REVISION":null},"geometry":{"type":"Point","coordinates":[1656531.7227681,198661.3684058]}},{"type":"Feature","properties":{"STATION":"OLNEY","difference":5.6253564,"STFIPS":"42","STR_ADD":"OLNEY AVE AND BROAD ST","RTS_SRVD":"BROAD STREET LINE","LONGTUDE":-75.144752,"LATITUDE":40.0388868,"CITY":"PHILADELPHIA","UZA":"PHILADELPHIA, PA-NJ-DE-MD","UACODE":"69076","ZIPCODE":"19141","STATUS":3,"SOURCE":"DOT","VERSION":"03","REVISION":null},"geometry":{"type":"Point","coordinates":[1656214.8097267,203051.3531649]}},{"type":"Feature","properties":{"STATION":"OREGON","difference":5.8686742,"STFIPS":"42","STR_ADD":"OREGON AVE AND BROAD ST","RTS_SRVD":"BROAD STREET LINE","LONGTUDE":-75.1714289,"LATITUDE":39.9167609,"CITY":"PHILADELPHIA","UZA":"PHILADELPHIA, PA-NJ-DE-MD","UACODE":"69076","ZIPCODE":"19145","STATUS":3,"SOURCE":"DOT","VERSION":"03","REVISION":null},"geometry":{"type":"Point","coordinates":[1657150.6121041,190167.4370291]}},{"type":"Feature","properties":{"STATION":"PATTISON","difference":-38.1097768,"STFIPS":"42","STR_ADD":"PATTISON AVE AND BROAD ST","RTS_SRVD":"BROAD STREET LINE","LONGTUDE":-75.1736248,"LATITUDE":39.9053684,"CITY":"PHILADELPHIA","UZA":"PHILADELPHIA, PA-NJ-DE-MD","UACODE":"69076","ZIPCODE":"19145","STATUS":3,"SOURCE":"DOT","VERSION":"03","REVISION":null},"geometry":{"type":"Point","coordinates":[1657260.3735991,188971.0634374]}},{"type":"Feature","properties":{"STATION":"RACE-VINE","difference":10.8880808,"STFIPS":"42","STR_ADD":"RACE AND BROAD ST","RTS_SRVD":"BROAD STREET LINE","LONGTUDE":-75.1625058,"LATITUDE":39.9570108,"CITY":"PHILADELPHIA","UZA":"PHILADELPHIA, PA-NJ-DE-MD","UACODE":"69076","ZIPCODE":"19102","STATUS":3,"SOURCE":"DOT","VERSION":"03","REVISION":null},"geometry":{"type":"Point","coordinates":[1656853.2496537,194416.3419545]}},{"type":"Feature","properties":{"STATION":"SNYDER","difference":16.6398603,"STFIPS":"42","STR_ADD":"SNYDER AVE AND BROAD ST","RTS_SRVD":"BROAD STREET LINE","LONGTUDE":-75.1697394,"LATITUDE":39.9243066,"CITY":"PHILADELPHIA","UZA":"PHILADELPHIA, PA-NJ-DE-MD","UACODE":"69076","ZIPCODE":"19145","STATUS":3,"SOURCE":"DOT","VERSION":"03","REVISION":null},"geometry":{"type":"Point","coordinates":[1657096.2488114,190964.3246266]}},{"type":"Feature","properties":{"STATION":"SOMERSET","difference":-2.0800299,"STFIPS":"42","STR_ADD":"SMERSET ST AND KENSINGTON AVE","RTS_SRVD":"MARKET-FRANKFORD LINE","LONGTUDE":-75.1223948,"LATITUDE":39.991471,"CITY":"PHILADELPHIA","UZA":"PHILADELPHIA, PA-NJ-DE-MD","UACODE":"69076","ZIPCODE":"19134","STATUS":3,"SOURCE":"DOT","VERSION":"03","REVISION":null},"geometry":{"type":"Point","coordinates":[1659129.096205,198671.2645311]}},{"type":"Feature","properties":{"STATION":"SPRING GARDEN","difference":-1.0453737,"STFIPS":"42","STR_ADD":"SPRING GARDEN ST AND I-95","RTS_SRVD":"MARKET-FRANKFORD LINE","LONGTUDE":-75.1402783,"LATITUDE":39.960607,"CITY":"PHILADELPHIA","UZA":"PHILADELPHIA, PA-NJ-DE-MD","UACODE":"69076","ZIPCODE":"19123","STATUS":3,"SOURCE":"DOT","VERSION":"03","REVISION":null},"geometry":{"type":"Point","coordinates":[1658497.919268,195203.3353545]}},{"type":"Feature","properties":{"STATION":"SPRING GARDEN (BROAD STREET)","difference":-7.2145961,"STFIPS":"42","STR_ADD":"SPRING GARDEN AND BROAD ST","RTS_SRVD":"BROAD STREET LINE","LONGTUDE":-75.1613718,"LATITUDE":39.9623863,"CITY":"PHILADELPHIA","UZA":"PHILADELPHIA, PA-NJ-DE-MD","UACODE":"69076","ZIPCODE":"19130","STATUS":3,"SOURCE":"DOT","VERSION":"03","REVISION":null},"geometry":{"type":"Point","coordinates":[1656808.9890365,194982.699681]}},{"type":"Feature","properties":{"STATION":"SUSQUEHANNA-DAUPHIN","difference":2.3453292,"STFIPS":"42","STR_ADD":"SUSQUEHANNA AVE AND BROAD ST","RTS_SRVD":"BROAD STREET LINE","LONGTUDE":-75.1560289,"LATITUDE":39.9871682,"CITY":"PHILADELPHIA","UZA":"PHILADELPHIA, PA-NJ-DE-MD","UACODE":"69076","ZIPCODE":"19132","STATUS":3,"SOURCE":"DOT","VERSION":"03","REVISION":null},"geometry":{"type":"Point","coordinates":[1656613.6392185,197595.7570346]}},{"type":"Feature","properties":{"STATION":"TASKER-MORRIS","difference":44.566434,"STFIPS":"42","STR_ADD":"MORRIS AND BROAD ST","RTS_SRVD":"BROAD STREET LINE","LONGTUDE":-75.1686727,"LATITUDE":39.9292315,"CITY":"PHILADELPHIA","UZA":"PHILADELPHIA, PA-NJ-DE-MD","UACODE":"69076","ZIPCODE":"19145","STATUS":3,"SOURCE":"DOT","VERSION":"03","REVISION":null},"geometry":{"type":"Point","coordinates":[1657057.9107222,191483.7291355]}},{"type":"Feature","properties":{"STATION":"TIOGA","difference":-7.3604639,"STFIPS":"42","STR_ADD":"TIOGA ST AND KENSINGTON AVE","RTS_SRVD":"MARKET-FRANKFORD LINE","LONGTUDE":-75.1065409,"LATITUDE":40.0002641,"CITY":"PHILADELPHIA","UZA":"PHILADELPHIA, PA-NJ-DE-MD","UACODE":"69076","ZIPCODE":"19134","STATUS":3,"SOURCE":"DOT","VERSION":"03","REVISION":null},"geometry":{"type":"Point","coordinates":[1660147.1536177,199864.0070887]}},{"type":"Feature","properties":{"STATION":"WALNUT-LOCUST","difference":-5.2443603,"STFIPS":"42","STR_ADD":"LOCUST AND BROAD ST","RTS_SRVD":"BROAD STREET LINE","LONGTUDE":-75.1644668,"LATITUDE":39.9481165,"CITY":"PHILADELPHIA","UZA":"PHILADELPHIA, PA-NJ-DE-MD","UACODE":"69076","ZIPCODE":"19102","STATUS":3,"SOURCE":"DOT","VERSION":"03","REVISION":null},"geometry":{"type":"Point","coordinates":[1656919.8783662,193477.6290196]}},{"type":"Feature","properties":{"STATION":"WYOMING","difference":4.8499482,"STFIPS":"42","STR_ADD":"WYOMING AVE AND BROAD ST","RTS_SRVD":"BROAD STREET LINE","LONGTUDE":-75.1480082,"LATITUDE":40.024317,"CITY":"PHILADELPHIA","UZA":"PHILADELPHIA, PA-NJ-DE-MD","UACODE":"69076","ZIPCODE":"19140","STATUS":3,"SOURCE":"DOT","VERSION":"03","REVISION":null},"geometry":{"type":"Point","coordinates":[1656321.1082536,201512.9385969]}},{"type":"Feature","properties":{"STATION":"YORK-DAUPHIN","difference":14.5852849,"STFIPS":"42","STR_ADD":"DAUPHIN AND FRONT ST","RTS_SRVD":"MARKET-FRANKFORD LINE","LONGTUDE":-75.1319463,"LATITUDE":39.9855701,"CITY":"PHILADELPHIA","UZA":"PHILADELPHIA, PA-NJ-DE-MD","UACODE":"69076","ZIPCODE":"19133","STATUS":3,"SOURCE":"DOT","VERSION":"03","REVISION":null},"geometry":{"type":"Point","coordinates":[1658530.4990202,197891.5782528]}}]}