{"type":"FeatureCollection","features":[{"type":"Feature","properties":{"STFIPS":"42","STATION":"FERN ROCK TRANSPORTATION CENTER","STR_ADD":"NEDRO AVE E OF 10 ST","RTS_SRVD":"BROAD STREET LINE","LONGTUDE":-75.1371,"LATITUDE":40.0413,"CITY":"PHILADELPHIA","UZA":"PHILADELPHIA, PA-NJ-DE-MD","UACODE":"69076","ZIPCODE":"19141","STATUS":3,"SOURCE":"DOT","VERSION":"03","FID_1":6,"STATION_1":"FERN ROCK TRANSPORTATION CENTER","SUM_Count":1038,"SUM_Area_A":118.5374,"Ave_Size_A":0.1142},"geometry":{"type":"Point","coordinates":[-75.1371,40.0413]}},{"type":"Feature","properties":{"STFIPS":"42","STATION":"OLNEY","STR_ADD":"OLNEY AVE AND BROAD ST","RTS_SRVD":"BROAD STREET LINE","LONGTUDE":-75.1448,"LATITUDE":40.0389,"CITY":"PHILADELPHIA","UZA":"PHILADELPHIA, PA-NJ-DE-MD","UACODE":"69076","ZIPCODE":"19141","STATUS":3,"SOURCE":"DOT","VERSION":"03","FID_1":11,"STATION_1":"OLNEY","SUM_Count":756,"SUM_Area_A":53.4955,"Ave_Size_A":0.0708},"geometry":{"type":"Point","coordinates":[-75.1448,40.0389]}},{"type":"Feature","properties":{"STFIPS":"42","STATION":"LOGAN","STR_ADD":"LINDLEY AVE AND BROAD ST","RTS_SRVD":"BROAD STREET LINE","LONGTUDE":-75.1466,"LATITUDE":40.0307,"CITY":"PHILADELPHIA","UZA":"PHILADELPHIA, PA-NJ-DE-MD","UACODE":"69076","ZIPCODE":"19141","STATUS":3,"SOURCE":"DOT","VERSION":"03","FID_1":8,"STATION_1":"LOGAN","SUM_Count":1257,"SUM_Area_A":76.1479,"Ave_Size_A":0.0606},"geometry":{"type":"Point","coordinates":[-75.1466,40.0307]}},{"type":"Feature","properties":{"STFIPS":"42","STATION":"WYOMING","STR_ADD":"WYOMING AVE AND BROAD ST","RTS_SRVD":"BROAD STREET LINE","LONGTUDE":-75.148,"LATITUDE":40.0243,"CITY":"PHILADELPHIA","UZA":"PHILADELPHIA, PA-NJ-DE-MD","UACODE":"69076","ZIPCODE":"19140","STATUS":3,"SOURCE":"DOT","VERSION":"03","FID_1":20,"STATION_1":"WYOMING","SUM_Count":1775,"SUM_Area_A":70.0025,"Ave_Size_A":0.0394},"geometry":{"type":"Point","coordinates":[-75.148,40.0243]}},{"type":"Feature","properties":{"STFIPS":"42","STATION":"FRANKFROD TRANSPORTATION CENTER","STR_ADD":"GRANITE ST AND FRANKFOR AVE","RTS_SRVD":"MARKET-FRANKFORD LINE","LONGTUDE":-75.0772,"LATITUDE":40.0231,"CITY":"PHILADELPHIA","UZA":"PHILADELPHIA, PA-NJ-DE-MD","UACODE":"69076","ZIPCODE":"19124","STATUS":3,"SOURCE":"DOT","VERSION":"03","FID_1":0,"SUM_Count":0,"SUM_Area_A":0,"Ave_Size_A":0},"geometry":{"type":"Point","coordinates":[-75.0772,40.0231]}},{"type":"Feature","properties":{"STFIPS":"42","STATION":"HUNTING PARK","STR_ADD":"HUNTING PARK AVE AND BROAD ST","RTS_SRVD":"BROAD STREET LINE","LONGTUDE":-75.1496,"LATITUDE":40.017,"CITY":"PHILADELPHIA","UZA":"PHILADELPHIA, PA-NJ-DE-MD","UACODE":"69076","ZIPCODE":"19140","STATUS":3,"SOURCE":"DOT","VERSION":"03","FID_1":7,"STATION_1":"HUNTING PARK","SUM_Count":1222,"SUM_Area_A":59.387,"Ave_Size_A":0.0486},"geometry":{"type":"Point","coordinates":[-75.1496,40.017]}},{"type":"Feature","properties":{"STFIPS":"42","STATION":"MARGARET-ORTHODOX","STR_ADD":"MARGARET ST AND FRANKFOR AVE","RTS_SRVD":"MARKET-FRANKFORD LINE","LONGTUDE":-75.0838,"LATITUDE":40.0167,"CITY":"PHILADELPHIA","UZA":"PHILADELPHIA, PA-NJ-DE-MD","UACODE":"69076","ZIPCODE":"19124","STATUS":3,"SOURCE":"DOT","VERSION":"03","FID_1":0,"SUM_Count":0,"SUM_Area_A":0,"Ave_Size_A":0},"geometry":{"type":"Point","coordinates":[-75.0838,40.0167]}},{"type":"Feature","properties":{"STFIPS":"42","STATION":"CHURCH","STR_ADD":"CHURCH ST AND FRANKFOR AVE","RTS_SRVD":"MARKET-FRANKFORD LINE","LONGTUDE":-75.0887,"LATITUDE":40.011,"CITY":"PHILADELPHIA","UZA":"PHILADELPHIA, PA-NJ-DE-MD","UACODE":"69076","ZIPCODE":"19124","STATUS":3,"SOURCE":"DOT","VERSION":"03","FID_1":0,"SUM_Count":0,"SUM_Area_A":0,"Ave_Size_A":0},"geometry":{"type":"Point","coordinates":[-75.0887,40.011]}},{"type":"Feature","properties":{"STFIPS":"42","STATION":"ERIE","STR_ADD":"ERIE AVE AND BROAD ST","RTS_SRVD":"BROAD STREET LINE","LONGTUDE":-75.1513,"LATITUDE":40.0094,"CITY":"PHILADELPHIA","UZA":"PHILADELPHIA, PA-NJ-DE-MD","UACODE":"69076","ZIPCODE":"19140","STATUS":3,"SOURCE":"DOT","VERSION":"03","FID_1":4,"STATION_1":"ERIE","SUM_Count":1881,"SUM_Area_A":82.7932,"Ave_Size_A":0.044},"geometry":{"type":"Point","coordinates":[-75.1513,40.0094]}},{"type":"Feature","properties":{"STFIPS":"42","STATION":"ERIE-TORRESDALE","STR_ADD":"ERIE AND TORRESDALE AVE","RTS_SRVD":"MARKET-FRANKFORD LINE","LONGTUDE":-75.0964,"LATITUDE":40.0058,"CITY":"PHILADELPHIA","UZA":"PHILADELPHIA, PA-NJ-DE-MD","UACODE":"69076","ZIPCODE":"19124","STATUS":3,"SOURCE":"DOT","VERSION":"03","FID_1":0,"SUM_Count":0,"SUM_Area_A":0,"Ave_Size_A":0},"geometry":{"type":"Point","coordinates":[-75.0964,40.0058]}},{"type":"Feature","properties":{"STFIPS":"42","STATION":"ALLEGHENY","STR_ADD":"ALLEGHENY AVE AND BROAD ST","RTS_SRVD":"BROAD STREET LINE","LONGTUDE":-75.153,"LATITUDE":40.0016,"CITY":"PHILADELPHIA","UZA":"PHILADELPHIA, PA-NJ-DE-MD","UACODE":"69076","ZIPCODE":"19140","STATUS":3,"SOURCE":"DOT","VERSION":"03","FID_1":0,"STATION_1":"ALLEGHENY","SUM_Count":1627,"SUM_Area_A":82.0419,"Ave_Size_A":0.0504},"geometry":{"type":"Point","coordinates":[-75.153,40.0016]}},{"type":"Feature","properties":{"STFIPS":"42","STATION":"TIOGA","STR_ADD":"TIOGA ST AND KENSINGTON AVE","RTS_SRVD":"MARKET-FRANKFORD LINE","LONGTUDE":-75.1065,"LATITUDE":40.0003,"CITY":"PHILADELPHIA","UZA":"PHILADELPHIA, PA-NJ-DE-MD","UACODE":"69076","ZIPCODE":"19134","STATUS":3,"SOURCE":"DOT","VERSION":"03","FID_1":0,"SUM_Count":0,"SUM_Area_A":0,"Ave_Size_A":0},"geometry":{"type":"Point","coordinates":[-75.1065,40.0003]}},{"type":"Feature","properties":{"STFIPS":"42","STATION":"NORTH PHILADELPHIA","STR_ADD":"GLENWOOD AVE AND BROAD ST","RTS_SRVD":"BROAD STREET LINE","LONGTUDE":-75.1539,"LATITUDE":39.9973,"CITY":"PHILADELPHIA","UZA":"PHILADELPHIA, PA-NJ-DE-MD","UACODE":"69076","ZIPCODE":"19132","STATUS":3,"SOURCE":"DOT","VERSION":"03","FID_1":10,"STATION_1":"NORTH PHILADELPHIA","SUM_Count":1573,"SUM_Area_A":80.6788,"Ave_Size_A":0.0513},"geometry":{"type":"Point","coordinates":[-75.1539,39.9973]}},{"type":"Feature","properties":{"STFIPS":"42","STATION":"ALLEGHENY","STR_ADD":"ALLEGHENY AND KENSINGTON AVE","RTS_SRVD":"MARKET-FRANKFORD LINE","LONGTUDE":-75.1134,"LATITUDE":39.9965,"CITY":"PHILADELPHIA","UZA":"PHILADELPHIA, PA-NJ-DE-MD","UACODE":"69076","ZIPCODE":"19134","STATUS":3,"SOURCE":"DOT","VERSION":"03","FID_1":0,"STATION_1":"ALLEGHENY","SUM_Count":0,"SUM_Area_A":0,"Ave_Size_A":0},"geometry":{"type":"Point","coordinates":[-75.1134,39.9965]}},{"type":"Feature","properties":{"STFIPS":"42","STATION":"SOMERSET","STR_ADD":"SMERSET ST AND KENSINGTON AVE","RTS_SRVD":"MARKET-FRANKFORD LINE","LONGTUDE":-75.1224,"LATITUDE":39.9915,"CITY":"PHILADELPHIA","UZA":"PHILADELPHIA, PA-NJ-DE-MD","UACODE":"69076","ZIPCODE":"19134","STATUS":3,"SOURCE":"DOT","VERSION":"03","FID_1":0,"SUM_Count":0,"SUM_Area_A":0,"Ave_Size_A":0},"geometry":{"type":"Point","coordinates":[-75.1224,39.9915]}},{"type":"Feature","properties":{"STFIPS":"42","STATION":"HUNTINGDON","STR_ADD":"HUNTINGDON ST AND KENSINGTON AVE","RTS_SRVD":"MARKET-FRANKFORD LINE","LONGTUDE":-75.1273,"LATITUDE":39.9887,"CITY":"PHILADELPHIA","UZA":"PHILADELPHIA, PA-NJ-DE-MD","UACODE":"69076","ZIPCODE":"19125","STATUS":3,"SOURCE":"DOT","VERSION":"03","FID_1":0,"SUM_Count":0,"SUM_Area_A":0,"Ave_Size_A":0},"geometry":{"type":"Point","coordinates":[-75.1273,39.9887]}},{"type":"Feature","properties":{"STFIPS":"42","STATION":"SUSQUEHANNA-DAUPHIN","STR_ADD":"SUSQUEHANNA AVE AND BROAD ST","RTS_SRVD":"BROAD STREET LINE","LONGTUDE":-75.156,"LATITUDE":39.9872,"CITY":"PHILADELPHIA","UZA":"PHILADELPHIA, PA-NJ-DE-MD","UACODE":"69076","ZIPCODE":"19132","STATUS":3,"SOURCE":"DOT","VERSION":"03","FID_1":17,"STATION_1":"SUSQUEHANNA-DAUPHIN","SUM_Count":2289,"SUM_Area_A":84.2971,"Ave_Size_A":0.0368},"geometry":{"type":"Point","coordinates":[-75.156,39.9872]}},{"type":"Feature","properties":{"STFIPS":"42","STATION":"YORK-DAUPHIN","STR_ADD":"DAUPHIN AND FRONT ST","RTS_SRVD":"MARKET-FRANKFORD LINE","LONGTUDE":-75.1319,"LATITUDE":39.9856,"CITY":"PHILADELPHIA","UZA":"PHILADELPHIA, PA-NJ-DE-MD","UACODE":"69076","ZIPCODE":"19133","STATUS":3,"SOURCE":"DOT","VERSION":"03","FID_1":0,"SUM_Count":0,"SUM_Area_A":0,"Ave_Size_A":0},"geometry":{"type":"Point","coordinates":[-75.1319,39.9856]}},{"type":"Feature","properties":{"STFIPS":"42","STATION":"CECIL B MOORE","STR_ADD":"CECIL B MOORE AVE AND BROAD ST","RTS_SRVD":"BROAD STREET LINE","LONGTUDE":-75.1578,"LATITUDE":39.9787,"CITY":"PHILADELPHIA","UZA":"PHILADELPHIA, PA-NJ-DE-MD","UACODE":"69076","ZIPCODE":"19121","STATUS":3,"SOURCE":"DOT","VERSION":"03","FID_1":1,"STATION_1":"CECIL B MOORE","SUM_Count":1053,"SUM_Area_A":91.6696,"Ave_Size_A":0.0871},"geometry":{"type":"Point","coordinates":[-75.1578,39.9787]}},{"type":"Feature","properties":{"STFIPS":"42","STATION":"BERKS","STR_ADD":"BERKS AND FRONT ST","RTS_SRVD":"MARKET-FRANKFORD LINE","LONGTUDE":-75.1335,"LATITUDE":39.9787,"CITY":"PHILADELPHIA","UZA":"PHILADELPHIA, PA-NJ-DE-MD","UACODE":"69076","ZIPCODE":"19122","STATUS":3,"SOURCE":"DOT","VERSION":"03","FID_1":0,"SUM_Count":0,"SUM_Area_A":0,"Ave_Size_A":0},"geometry":{"type":"Point","coordinates":[-75.1335,39.9787]}},{"type":"Feature","properties":{"STFIPS":"42","STATION":"FAIRMOUNT","STR_ADD":"FAIRMOUNT AVE AND BROAD ST","RTS_SRVD":"BROAD STREET LINE","LONGTUDE":-75.1604,"LATITUDE":39.9671,"CITY":"PHILADELPHIA","UZA":"PHILADELPHIA, PA-NJ-DE-MD","UACODE":"69076","ZIPCODE":"19130","STATUS":3,"SOURCE":"DOT","VERSION":"03","FID_1":5,"STATION_1":"FAIRMOUNT","SUM_Count":1245,"SUM_Area_A":96.8948,"Ave_Size_A":0.0778},"geometry":{"type":"Point","coordinates":[-75.1604,39.9671]}},{"type":"Feature","properties":{"STFIPS":"42","STATION":"63RD STREET","STR_ADD":"63RD AND MARKET ST","RTS_SRVD":"MARKET-FRANKFORD LINE","LONGTUDE":-75.2468,"LATITUDE":39.9627,"CITY":"PHILADELPHIA","UZA":"PHILADELPHIA, PA-NJ-DE-MD","UACODE":"69076","ZIPCODE":"19139","STATUS":3,"SOURCE":"DOT","VERSION":"03","FID_1":0,"SUM_Count":0,"SUM_Area_A":0,"Ave_Size_A":0},"geometry":{"type":"Point","coordinates":[-75.2468,39.9627]}},{"type":"Feature","properties":{"STFIPS":"42","STATION":"SPRING GARDEN (BROAD STREET)","STR_ADD":"SPRING GARDEN AND BROAD ST","RTS_SRVD":"BROAD STREET LINE","LONGTUDE":-75.1614,"LATITUDE":39.9624,"CITY":"PHILADELPHIA","UZA":"PHILADELPHIA, PA-NJ-DE-MD","UACODE":"69076","ZIPCODE":"19130","STATUS":3,"SOURCE":"DOT","VERSION":"03","FID_1":16,"STATION_1":"SPRING GARDEN (BROAD STREET)","SUM_Count":774,"SUM_Area_A":93.408,"Ave_Size_A":0.1207},"geometry":{"type":"Point","coordinates":[-75.1614,39.9624]}},{"type":"Feature","properties":{"STFIPS":"42","STATION":"60TH STREET","STR_ADD":"60TH AND MARKET ST","RTS_SRVD":"MARKET-FRANKFORD LINE","LONGTUDE":-75.2407,"LATITUDE":39.962,"CITY":"PHILADELPHIA","UZA":"PHILADELPHIA, PA-NJ-DE-MD","UACODE":"69076","ZIPCODE":"19139","STATUS":3,"SOURCE":"DOT","VERSION":"03","FID_1":0,"SUM_Count":0,"SUM_Area_A":0,"Ave_Size_A":0},"geometry":{"type":"Point","coordinates":[-75.2407,39.962]}},{"type":"Feature","properties":{"STFIPS":"42","STATION":"56TH STREET","STR_ADD":"56TH AND MARKET ST","RTS_SRVD":"MARKET-FRANKFORD LINE","LONGTUDE":-75.2328,"LATITUDE":39.961,"CITY":"PHILADELPHIA","UZA":"PHILADELPHIA, PA-NJ-DE-MD","UACODE":"69076","ZIPCODE":"19139","STATUS":3,"SOURCE":"DOT","VERSION":"03","FID_1":0,"SUM_Count":0,"SUM_Area_A":0,"Ave_Size_A":0},"geometry":{"type":"Point","coordinates":[-75.2328,39.961]}},{"type":"Feature","properties":{"STFIPS":"42","STATION":"SPRING GARDEN","STR_ADD":"SPRING GARDEN ST AND I-95","RTS_SRVD":"MARKET-FRANKFORD LINE","LONGTUDE":-75.1403,"LATITUDE":39.9606,"CITY":"PHILADELPHIA","UZA":"PHILADELPHIA, PA-NJ-DE-MD","UACODE":"69076","ZIPCODE":"19123","STATUS":3,"SOURCE":"DOT","VERSION":"03","FID_1":0,"SUM_Count":0,"SUM_Area_A":0,"Ave_Size_A":0},"geometry":{"type":"Point","coordinates":[-75.1403,39.9606]}},{"type":"Feature","properties":{"STFIPS":"42","STATION":"52ND STREET","STR_ADD":"52ND AND MARKET ST","RTS_SRVD":"MARKET-FRANKFORD LINE","LONGTUDE":-75.2249,"LATITUDE":39.96,"CITY":"PHILADELPHIA","UZA":"PHILADELPHIA, PA-NJ-DE-MD","UACODE":"69076","ZIPCODE":"19139","STATUS":3,"SOURCE":"DOT","VERSION":"03","FID_1":0,"SUM_Count":0,"SUM_Area_A":0,"Ave_Size_A":0},"geometry":{"type":"Point","coordinates":[-75.2249,39.96]}},{"type":"Feature","properties":{"STFIPS":"42","STATION":"46TH STREET","STR_ADD":"46TH AND MARKET ST","RTS_SRVD":"MARKET-FRANKFORD LINE","LONGTUDE":-75.2131,"LATITUDE":39.9585,"CITY":"PHILADELPHIA","UZA":"PHILADELPHIA, PA-NJ-DE-MD","UACODE":"69076","ZIPCODE":"19104","STATUS":3,"SOURCE":"DOT","VERSION":"03","FID_1":0,"SUM_Count":0,"SUM_Area_A":0,"Ave_Size_A":0},"geometry":{"type":"Point","coordinates":[-75.2131,39.9585]}},{"type":"Feature","properties":{"STFIPS":"42","STATION":"40TH STREET","STR_ADD":"40TH AND MARKET ST","RTS_SRVD":"MARKET-FRANKFORD LINE","LONGTUDE":-75.2019,"LATITUDE":39.9572,"CITY":"PHILADELPHIA","UZA":"PHILADELPHIA, PA-NJ-DE-MD","UACODE":"69076","ZIPCODE":"19104","STATUS":3,"SOURCE":"DOT","VERSION":"03","FID_1":0,"SUM_Count":0,"SUM_Area_A":0,"Ave_Size_A":0},"geometry":{"type":"Point","coordinates":[-75.2019,39.9572]}},{"type":"Feature","properties":{"STFIPS":"42","STATION":"RACE-VINE","STR_ADD":"RACE AND BROAD ST","RTS_SRVD":"BROAD STREET LINE","LONGTUDE":-75.1625,"LATITUDE":39.957,"CITY":"PHILADELPHIA","UZA":"PHILADELPHIA, PA-NJ-DE-MD","UACODE":"69076","ZIPCODE":"19102","STATUS":3,"SOURCE":"DOT","VERSION":"03","FID_1":14,"STATION_1":"RACE-VINE","SUM_Count":742,"SUM_Area_A":95.5631,"Ave_Size_A":0.1288},"geometry":{"type":"Point","coordinates":[-75.1625,39.957]}},{"type":"Feature","properties":{"STFIPS":"42","STATION":"34TH STREET","STR_ADD":"34TH AND MARKET ST","RTS_SRVD":"MARKET-FRANKFORD LINE","LONGTUDE":-75.1914,"LATITUDE":39.9559,"CITY":"PHILADELPHIA","UZA":"PHILADELPHIA, PA-NJ-DE-MD","UACODE":"69076","ZIPCODE":"19104","STATUS":3,"SOURCE":"DOT","VERSION":"03","FID_1":0,"SUM_Count":0,"SUM_Area_A":0,"Ave_Size_A":0},"geometry":{"type":"Point","coordinates":[-75.1914,39.9559]}},{"type":"Feature","properties":{"STFIPS":"42","STATION":"30TH STREET","STR_ADD":"30TH AND MARKET ST","RTS_SRVD":"MARKET-FRANKFORD LINE","LONGTUDE":-75.1833,"LATITUDE":39.9549,"CITY":"PHILADELPHIA","UZA":"PHILADELPHIA, PA-NJ-DE-MD","UACODE":"69076","ZIPCODE":"19104","STATUS":3,"SOURCE":"DOT","VERSION":"03","FID_1":0,"SUM_Count":0,"SUM_Area_A":0,"Ave_Size_A":0},"geometry":{"type":"Point","coordinates":[-75.1833,39.9549]}},{"type":"Feature","properties":{"STFIPS":"42","STATION":"15TH STREET","STR_ADD":"15TH AND MARKET ST","RTS_SRVD":"MARKET-FRANKFORD LINE","LONGTUDE":-75.1652,"LATITUDE":39.9526,"CITY":"PHILADELPHIA","UZA":"PHILADELPHIA, PA-NJ-DE-MD","UACODE":"69076","ZIPCODE":"19102","STATUS":3,"SOURCE":"DOT","VERSION":"03","FID_1":0,"SUM_Count":0,"SUM_Area_A":0,"Ave_Size_A":0},"geometry":{"type":"Point","coordinates":[-75.1652,39.9526]}},{"type":"Feature","properties":{"STFIPS":"42","STATION":"CITY HALL","STR_ADD":"15TH AND BROAD ST","RTS_SRVD":"BROAD STREET LINE","LONGTUDE":-75.1635,"LATITUDE":39.9523,"CITY":"PHILADELPHIA","UZA":"PHILADELPHIA, PA-NJ-DE-MD","UACODE":"69076","ZIPCODE":"19102","STATUS":3,"SOURCE":"DOT","VERSION":"03","FID_1":2,"STATION_1":"CITY HALL","SUM_Count":440,"SUM_Area_A":110.1149,"Ave_Size_A":0.2503},"geometry":{"type":"Point","coordinates":[-75.1635,39.9523]}},{"type":"Feature","properties":{"STFIPS":"42","STATION":"13TH STREET","STR_ADD":"13TH AND MARKET ST","RTS_SRVD":"MARKET-FRANKFORD LINE","LONGTUDE":-75.1614,"LATITUDE":39.9521,"CITY":"PHILADELPHIA","UZA":"PHILADELPHIA, PA-NJ-DE-MD","UACODE":"69076","ZIPCODE":"19107","STATUS":3,"SOURCE":"DOT","VERSION":"03","FID_1":0,"SUM_Count":0,"SUM_Area_A":0,"Ave_Size_A":0},"geometry":{"type":"Point","coordinates":[-75.1614,39.9521]}},{"type":"Feature","properties":{"STFIPS":"42","STATION":"11TH STREET","STR_ADD":"11TH AND MARKET ST","RTS_SRVD":"MARKET-FRANKFORD LINE","LONGTUDE":-75.1583,"LATITUDE":39.9517,"CITY":"PHILADELPHIA","UZA":"PHILADELPHIA, PA-NJ-DE-MD","UACODE":"69076","ZIPCODE":"19107","STATUS":3,"SOURCE":"DOT","VERSION":"03","FID_1":0,"SUM_Count":0,"SUM_Area_A":0,"Ave_Size_A":0},"geometry":{"type":"Point","coordinates":[-75.1583,39.9517]}},{"type":"Feature","properties":{"STFIPS":"42","STATION":"5TH STREET","STR_ADD":"5TH AND MARKET ST","RTS_SRVD":"MARKET-FRANKFORD LINE","LONGTUDE":-75.1489,"LATITUDE":39.9506,"CITY":"PHILADELPHIA","UZA":"PHILADELPHIA, PA-NJ-DE-MD","UACODE":"69076","ZIPCODE":"19106","STATUS":3,"SOURCE":"DOT","VERSION":"03","FID_1":0,"SUM_Count":0,"SUM_Area_A":0,"Ave_Size_A":0},"geometry":{"type":"Point","coordinates":[-75.1489,39.9506]}},{"type":"Feature","properties":{"STFIPS":"42","STATION":"2ND STREET","STR_ADD":"2ND AND MARKET ST","RTS_SRVD":"MARKET-FRANKFORD LINE","LONGTUDE":-75.1437,"LATITUDE":39.9499,"CITY":"PHILADELPHIA","UZA":"PHILADELPHIA, PA-NJ-DE-MD","UACODE":"69076","ZIPCODE":"19106","STATUS":3,"SOURCE":"DOT","VERSION":"03","FID_1":0,"SUM_Count":0,"SUM_Area_A":0,"Ave_Size_A":0},"geometry":{"type":"Point","coordinates":[-75.1437,39.9499]}},{"type":"Feature","properties":{"STFIPS":"42","STATION":"WALNUT-LOCUST","STR_ADD":"LOCUST AND BROAD ST","RTS_SRVD":"BROAD STREET LINE","LONGTUDE":-75.1645,"LATITUDE":39.9481,"CITY":"PHILADELPHIA","UZA":"PHILADELPHIA, PA-NJ-DE-MD","UACODE":"69076","ZIPCODE":"19102","STATUS":3,"SOURCE":"DOT","VERSION":"03","FID_1":19,"STATION_1":"WALNUT-LOCUST","SUM_Count":1223,"SUM_Area_A":97.4684,"Ave_Size_A":0.0797},"geometry":{"type":"Point","coordinates":[-75.1645,39.9481]}},{"type":"Feature","properties":{"STFIPS":"42","STATION":"LOMBARD-SOUTH","STR_ADD":"SOUTH AND BROAD ST","RTS_SRVD":"BROAD STREET LINE","LONGTUDE":-75.1655,"LATITUDE":39.9435,"CITY":"PHILADELPHIA","UZA":"PHILADELPHIA, PA-NJ-DE-MD","UACODE":"69076","ZIPCODE":"19146","STATUS":3,"SOURCE":"DOT","VERSION":"03","FID_1":9,"STATION_1":"LOMBARD-SOUTH","SUM_Count":2571,"SUM_Area_A":103.1124,"Ave_Size_A":0.0401},"geometry":{"type":"Point","coordinates":[-75.1655,39.9435]}},{"type":"Feature","properties":{"STFIPS":"42","STATION":"ELLSWORTH-FEDERAL","STR_ADD":"ELLSWORTH AND BROAD ST","RTS_SRVD":"BROAD STREET LINE","LONGTUDE":-75.167,"LATITUDE":39.9367,"CITY":"PHILADELPHIA","UZA":"PHILADELPHIA, PA-NJ-DE-MD","UACODE":"69076","ZIPCODE":"19146","STATUS":3,"SOURCE":"DOT","VERSION":"03","FID_1":3,"STATION_1":"ELLSWORTH-FEDERAL","SUM_Count":1856,"SUM_Area_A":102.4737,"Ave_Size_A":0.0552},"geometry":{"type":"Point","coordinates":[-75.167,39.9367]}},{"type":"Feature","properties":{"STFIPS":"42","STATION":"TASKER-MORRIS","STR_ADD":"MORRIS AND BROAD ST","RTS_SRVD":"BROAD STREET LINE","LONGTUDE":-75.1687,"LATITUDE":39.9292,"CITY":"PHILADELPHIA","UZA":"PHILADELPHIA, PA-NJ-DE-MD","UACODE":"69076","ZIPCODE":"19145","STATUS":3,"SOURCE":"DOT","VERSION":"03","FID_1":18,"STATION_1":"TASKER-MORRIS","SUM_Count":3144,"SUM_Area_A":74.0017,"Ave_Size_A":0.0235},"geometry":{"type":"Point","coordinates":[-75.1687,39.9292]}},{"type":"Feature","properties":{"STFIPS":"42","STATION":"SNYDER","STR_ADD":"SNYDER AVE AND BROAD ST","RTS_SRVD":"BROAD STREET LINE","LONGTUDE":-75.1697,"LATITUDE":39.9243,"CITY":"PHILADELPHIA","UZA":"PHILADELPHIA, PA-NJ-DE-MD","UACODE":"69076","ZIPCODE":"19145","STATUS":3,"SOURCE":"DOT","VERSION":"03","FID_1":15,"STATION_1":"SNYDER","SUM_Count":2633,"SUM_Area_A":78.2977,"Ave_Size_A":0.0297},"geometry":{"type":"Point","coordinates":[-75.1697,39.9243]}},{"type":"Feature","properties":{"STFIPS":"42","STATION":"OREGON","STR_ADD":"OREGON AVE AND BROAD ST","RTS_SRVD":"BROAD STREET LINE","LONGTUDE":-75.1714,"LATITUDE":39.9168,"CITY":"PHILADELPHIA","UZA":"PHILADELPHIA, PA-NJ-DE-MD","UACODE":"69076","ZIPCODE":"19145","STATUS":3,"SOURCE":"DOT","VERSION":"03","FID_1":12,"STATION_1":"OREGON","SUM_Count":2362,"SUM_Area_A":73.9004,"Ave_Size_A":0.0313},"geometry":{"type":"Point","coordinates":[-75.1714,39.9168]}},{"type":"Feature","properties":{"STFIPS":"42","STATION":"PATTISON","STR_ADD":"PATTISON AVE AND BROAD ST","RTS_SRVD":"BROAD STREET LINE","LONGTUDE":-75.1736,"LATITUDE":39.9054,"CITY":"PHILADELPHIA","UZA":"PHILADELPHIA, PA-NJ-DE-MD","UACODE":"69076","ZIPCODE":"19145","STATUS":3,"SOURCE":"DOT","VERSION":"03","FID_1":13,"STATION_1":"PATTISON","SUM_Count":31,"SUM_Area_A":43.6064,"Ave_Size_A":1.4067},"geometry":{"type":"Point","coordinates":[-75.1736,39.9054]}}]}