{"type":"FeatureCollection","features":[{"type":"Feature","properties":{"STATION":"11TH STREET","difference":39.0609621,"STFIPS":"42","STR_ADD":"11TH AND MARKET ST","RTS_SRVD":"MARKET-FRANKFORD LINE","CITY":"PHILADELPHIA","UZA":"PHILADELPHIA, PA-NJ-DE-MD","UACODE":"69076","ZIPCODE":"19107","STATUS":3,"SOURCE":"DOT","VERSION":"03","REVISION":null},"geometry":{"type":"Point","coordinates":[-75.1583018,39.9517252]}},{"type":"Feature","properties":{"STATION":"15TH STREET","difference":88.9111331,"STFIPS":"42","STR_ADD":"15TH AND MARKET ST","RTS_SRVD":"MARKET-FRANKFORD LINE","CITY":"PHILADELPHIA","UZA":"PHILADELPHIA, PA-NJ-DE-MD","UACODE":"69076","ZIPCODE":"19102","STATUS":3,"SOURCE":"DOT","VERSION":"03","REVISION":null},"geometry":{"type":"Point","coordinates":[-75.1652474,39.9526247]}},{"type":"Feature","properties":{"STATION":"2ND STREET","difference":-64.243885,"STFIPS":"42","STR_ADD":"2ND AND MARKET ST","RTS_SRVD":"MARKET-FRANKFORD LINE","CITY":"PHILADELPHIA","UZA":"PHILADELPHIA, PA-NJ-DE-MD","UACODE":"69076","ZIPCODE":"19106","STATUS":3,"SOURCE":"DOT","VERSION":"03","REVISION":null},"geometry":{"type":"Point","coordinates":[-75.1437405,39.949889]}},{"type":"Feature","properties":{"STATION":"34TH STREET","difference":49.3310368,"STFIPS":"42","STR_ADD":"34TH AND MARKET ST","RTS_SRVD":"MARKET-FRANKFORD LINE","CITY":"PHILADELPHIA","UZA":"PHILADELPHIA, PA-NJ-DE-MD","UACODE":"69076","ZIPCODE":"19104","STATUS":3,"SOURCE":"DOT","VERSION":"03","REVISION":null},"geometry":{"type":"Point","coordinates":[-75.1914303,39.9559087]}},{"type":"Feature","properties":{"STATION":"40TH STREET","difference":-2.3481508,"STFIPS":"42","STR_ADD":"40TH AND MARKET ST","RTS_SRVD":"MARKET-FRANKFORD LINE","CITY":"PHILADELPHIA","UZA":"PHILADELPHIA, PA-NJ-DE-MD","UACODE":"69076","ZIPCODE":"19104","STATUS":3,"SOURCE":"DOT","VERSION":"03","REVISION":null},"geometry":{"type":"Point","coordinates":[-75.2018984,39.9572114]}},{"type":"Feature","properties":{"STATION":"46TH STREET","difference":9.5462266,"STFIPS":"42","STR_ADD":"46TH AND MARKET ST","RTS_SRVD":"MARKET-FRANKFORD LINE","CITY":"PHILADELPHIA","UZA":"PHILADELPHIA, PA-NJ-DE-MD","UACODE":"69076","ZIPCODE":"19104","STATUS":3,"SOURCE":"DOT","VERSION":"03","REVISION":null},"geometry":{"type":"Point","coordinates":[-75.2130629,39.9585334]}},{"type":"Feature","properties":{"STATION":"52ND STREET","difference":-7.5591336,"STFIPS":"42","STR_ADD":"52ND AND MARKET ST","RTS_SRVD":"MARKET-FRANKFORD LINE","CITY":"PHILADELPHIA","UZA":"PHILADELPHIA, PA-NJ-DE-MD","UACODE":"69076","ZIPCODE":"19139","STATUS":3,"SOURCE":"DOT","VERSION":"03","REVISION":null},"geometry":{"type":"Point","coordinates":[-75.2248714,39.9600182]}},{"type":"Feature","properties":{"STATION":"56TH STREET","difference":-6.4779055,"STFIPS":"42","STR_ADD":"56TH AND MARKET ST","RTS_SRVD":"MARKET-FRANKFORD LINE","CITY":"PHILADELPHIA","UZA":"PHILADELPHIA, PA-NJ-DE-MD","UACODE":"69076","ZIPCODE":"19139","STATUS":3,"SOURCE":"DOT","VERSION":"03","REVISION":null},"geometry":{"type":"Point","coordinates":[-75.2328312,39.9609674]}},{"type":"Feature","properties":{"STATION":"5TH STREET","difference":-59.3124912,"STFIPS":"42","STR_ADD":"5TH AND MARKET ST","RTS_SRVD":"MARKET-FRANKFORD LINE","CITY":"PHILADELPHIA","UZA":"PHILADELPHIA, PA-NJ-DE-MD","UACODE":"69076","ZIPCODE":"19106","STATUS":3,"SOURCE":"DOT","VERSION":"03","REVISION":null},"geometry":{"type":"Point","coordinates":[-75.1489182,39.9505529]}},{"type":"Feature","properties":{"STATION":"60TH STREET","difference":-3.9423822,"STFIPS":"42","STR_ADD":"60TH AND MARKET ST","RTS_SRVD":"MARKET-FRANKFORD LINE","CITY":"PHILADELPHIA","UZA":"PHILADELPHIA, PA-NJ-DE-MD","UACODE":"69076","ZIPCODE":"19139","STATUS":3,"SOURCE":"DOT","VERSION":"03","REVISION":null},"geometry":{"type":"Point","coordinates":[-75.2406776,39.9619646]}},{"type":"Feature","properties":{"STATION":"63RD STREET","difference":0.6039388,"STFIPS":"42","STR_ADD":"63RD AND MARKET ST","RTS_SRVD":"MARKET-FRANKFORD LINE","CITY":"PHILADELPHIA","UZA":"PHILADELPHIA, PA-NJ-DE-MD","UACODE":"69076","ZIPCODE":"19139","STATUS":3,"SOURCE":"DOT","VERSION":"03","REVISION":null},"geometry":{"type":"Point","coordinates":[-75.2468173,39.962728]}},{"type":"Feature","properties":{"STATION":"ALLEGHENY","difference":2.8436954,"STFIPS":"42","STR_ADD":"ALLEGHENY AVE AND BROAD ST","RTS_SRVD":"BROAD STREET LINE","CITY":"PHILADELPHIA","UZA":"PHILADELPHIA, PA-NJ-DE-MD","UACODE":"69076","ZIPCODE":"19140","STATUS":3,"SOURCE":"DOT","VERSION":"03","REVISION":null},"geometry":{"type":"Point","coordinates":[-75.1529935,40.0015683]}},{"type":"Feature","properties":{"STATION":"ALLEGHENY","difference":2.8436954,"STFIPS":"42","STR_ADD":"ALLEGHENY AND KENSINGTON AVE","RTS_SRVD":"MARKET-FRANKFORD LINE","CITY":"PHILADELPHIA","UZA":"PHILADELPHIA, PA-NJ-DE-MD","UACODE":"69076","ZIPCODE":"19134","STATUS":3,"SOURCE":"DOT","VERSION":"03","REVISION":null},"geometry":{"type":"Point","coordinates":[-75.1133655,39.9965045]}},{"type":"Feature","properties":{"STATION":"BERKS","difference":-49.4054243,"STFIPS":"42","STR_ADD":"BERKS AND FRONT ST","RTS_SRVD":"MARKET-FRANKFORD LINE","CITY":"PHILADELPHIA","UZA":"PHILADELPHIA, PA-NJ-DE-MD","UACODE":"69076","ZIPCODE":"19122","STATUS":3,"SOURCE":"DOT","VERSION":"03","REVISION":null},"geometry":{"type":"Point","coordinates":[-75.133458,39.978695]}},{"type":"Feature","properties":{"STATION":"CECIL B MOORE","difference":27.9886382,"STFIPS":"42","STR_ADD":"CECIL B MOORE AVE AND BROAD ST","RTS_SRVD":"BROAD STREET LINE","CITY":"PHILADELPHIA","UZA":"PHILADELPHIA, PA-NJ-DE-MD","UACODE":"69076","ZIPCODE":"19121","STATUS":3,"SOURCE":"DOT","VERSION":"03","REVISION":null},"geometry":{"type":"Point","coordinates":[-75.1578448,39.9787368]}},{"type":"Feature","properties":{"STATION":"CHURCH","difference":7.601908,"STFIPS":"42","STR_ADD":"CHURCH ST AND FRANKFOR AVE","RTS_SRVD":"MARKET-FRANKFORD LINE","CITY":"PHILADELPHIA","UZA":"PHILADELPHIA, PA-NJ-DE-MD","UACODE":"69076","ZIPCODE":"19124","STATUS":3,"SOURCE":"DOT","VERSION":"03","REVISION":null},"geometry":{"type":"Point","coordinates":[-75.0886816,40.0110325]}},{"type":"Feature","properties":{"STATION":"ELLSWORTH-FEDERAL","difference":48.6526244,"STFIPS":"42","STR_ADD":"ELLSWORTH AND BROAD ST","RTS_SRVD":"BROAD STREET LINE","CITY":"PHILADELPHIA","UZA":"PHILADELPHIA, PA-NJ-DE-MD","UACODE":"69076","ZIPCODE":"19146","STATUS":3,"SOURCE":"DOT","VERSION":"03","REVISION":null},"geometry":{"type":"Point","coordinates":[-75.1669528,39.9366659]}},{"type":"Feature","properties":{"STATION":"ERIE","difference":-0.0617437,"STFIPS":"42","STR_ADD":"ERIE AVE AND BROAD ST","RTS_SRVD":"BROAD STREET LINE","CITY":"PHILADELPHIA","UZA":"PHILADELPHIA, PA-NJ-DE-MD","UACODE":"69076","ZIPCODE":"19140","STATUS":3,"SOURCE":"DOT","VERSION":"03","REVISION":null},"geometry":{"type":"Point","coordinates":[-75.1513193,40.0094101]}},{"type":"Feature","properties":{"STATION":"ERIE-TORRESDALE","difference":-13.4925335,"STFIPS":"42","STR_ADD":"ERIE AND TORRESDALE AVE","RTS_SRVD":"MARKET-FRANKFORD LINE","CITY":"PHILADELPHIA","UZA":"PHILADELPHIA, PA-NJ-DE-MD","UACODE":"69076","ZIPCODE":"19124","STATUS":3,"SOURCE":"DOT","VERSION":"03","REVISION":null},"geometry":{"type":"Point","coordinates":[-75.0964123,40.0058016]}},{"type":"Feature","properties":{"STATION":"FAIRMOUNT","difference":20.5473793,"STFIPS":"42","STR_ADD":"FAIRMOUNT AVE AND BROAD ST","RTS_SRVD":"BROAD STREET LINE","CITY":"PHILADELPHIA","UZA":"PHILADELPHIA, PA-NJ-DE-MD","UACODE":"69076","ZIPCODE":"19130","STATUS":3,"SOURCE":"DOT","VERSION":"03","REVISION":null},"geometry":{"type":"Point","coordinates":[-75.1603859,39.9670632]}},{"type":"Feature","properties":{"STATION":"FERN ROCK TRANSPORTATION CENTER","difference":-14.1177603,"STFIPS":"42","STR_ADD":"NEDRO AVE E OF 10 ST","RTS_SRVD":"BROAD STREET LINE","CITY":"PHILADELPHIA","UZA":"PHILADELPHIA, PA-NJ-DE-MD","UACODE":"69076","ZIPCODE":"19141","STATUS":3,"SOURCE":"DOT","VERSION":"03","REVISION":null},"geometry":{"type":"Point","coordinates":[-75.137068,40.0412561]}},{"type":"Feature","properties":{"STATION":"FRANKFROD TRANSPORTATION CENTER","difference":-16.1679459,"STFIPS":"42","STR_ADD":"GRANITE ST AND FRANKFOR AVE","RTS_SRVD":"MARKET-FRANKFORD LINE","CITY":"PHILADELPHIA","UZA":"PHILADELPHIA, PA-NJ-DE-MD","UACODE":"69076","ZIPCODE":"19124","STATUS":3,"SOURCE":"DOT","VERSION":"03","REVISION":null},"geometry":{"type":"Point","coordinates":[-75.0772455,40.0230893]}},{"type":"Feature","properties":{"STATION":"HUNTING PARK","difference":-6.0870021,"STFIPS":"42","STR_ADD":"HUNTING PARK AVE AND BROAD ST","RTS_SRVD":"BROAD STREET LINE","CITY":"PHILADELPHIA","UZA":"PHILADELPHIA, PA-NJ-DE-MD","UACODE":"69076","ZIPCODE":"19140","STATUS":3,"SOURCE":"DOT","VERSION":"03","REVISION":null},"geometry":{"type":"Point","coordinates":[-75.1496359,40.0169502]}},{"type":"Feature","properties":{"STATION":"HUNTINGDON","difference":-11.5820444,"STFIPS":"42","STR_ADD":"HUNTINGDON ST AND KENSINGTON AVE","RTS_SRVD":"MARKET-FRANKFORD LINE","CITY":"PHILADELPHIA","UZA":"PHILADELPHIA, PA-NJ-DE-MD","UACODE":"69076","ZIPCODE":"19125","STATUS":3,"SOURCE":"DOT","VERSION":"03","REVISION":null},"geometry":{"type":"Point","coordinates":[-75.1272532,39.9887254]}},{"type":"Feature","properties":{"STATION":"LOGAN","difference":-1.7753249,"STFIPS":"42","STR_ADD":"LINDLEY AVE AND BROAD ST","RTS_SRVD":"BROAD STREET LINE","CITY":"PHILADELPHIA","UZA":"PHILADELPHIA, PA-NJ-DE-MD","UACODE":"69076","ZIPCODE":"19141","STATUS":3,"SOURCE":"DOT","VERSION":"03","REVISION":null},"geometry":{"type":"Point","coordinates":[-75.1465946,40.0307001]}},{"type":"Feature","properties":{"STATION":"LOMBARD-SOUTH","difference":-21.442271,"STFIPS":"42","STR_ADD":"SOUTH AND BROAD ST","RTS_SRVD":"BROAD STREET LINE","CITY":"PHILADELPHIA","UZA":"PHILADELPHIA, PA-NJ-DE-MD","UACODE":"69076","ZIPCODE":"19146","STATUS":3,"SOURCE":"DOT","VERSION":"03","REVISION":null},"geometry":{"type":"Point","coordinates":[-75.1654542,39.9435165]}},{"type":"Feature","properties":{"STATION":"MARGARET-ORTHODOX","difference":-13.7053461,"STFIPS":"42","STR_ADD":"MARGARET ST AND FRANKFOR AVE","RTS_SRVD":"MARKET-FRANKFORD LINE","CITY":"PHILADELPHIA","UZA":"PHILADELPHIA, PA-NJ-DE-MD","UACODE":"69076","ZIPCODE":"19124","STATUS":3,"SOURCE":"DOT","VERSION":"03","REVISION":null},"geometry":{"type":"Point","coordinates":[-75.0838337,40.0166629]}},{"type":"Feature","properties":{"STATION":"NORTH PHILADELPHIA","difference":-2.998443,"STFIPS":"42","STR_ADD":"GLENWOOD AVE AND BROAD ST","RTS_SRVD":"BROAD STREET LINE","CITY":"PHILADELPHIA","UZA":"PHILADELPHIA, PA-NJ-DE-MD","UACODE":"69076","ZIPCODE":"19132","STATUS":3,"SOURCE":"DOT","VERSION":"03","REVISION":null},"geometry":{"type":"Point","coordinates":[-75.153876,39.9972793]}},{"type":"Feature","properties":{"STATION":"OLNEY","difference":5.6253564,"STFIPS":"42","STR_ADD":"OLNEY AVE AND BROAD ST","RTS_SRVD":"BROAD STREET LINE","CITY":"PHILADELPHIA","UZA":"PHILADELPHIA, PA-NJ-DE-MD","UACODE":"69076","ZIPCODE":"19141","STATUS":3,"SOURCE":"DOT","VERSION":"03","REVISION":null},"geometry":{"type":"Point","coordinates":[-75.144752,40.0388868]}},{"type":"Feature","properties":{"STATION":"OREGON","difference":5.8686742,"STFIPS":"42","STR_ADD":"OREGON AVE AND BROAD ST","RTS_SRVD":"BROAD STREET LINE","CITY":"PHILADELPHIA","UZA":"PHILADELPHIA, PA-NJ-DE-MD","UACODE":"69076","ZIPCODE":"19145","STATUS":3,"SOURCE":"DOT","VERSION":"03","REVISION":null},"geometry":{"type":"Point","coordinates":[-75.1714289,39.9167609]}},{"type":"Feature","properties":{"STATION":"PATTISON","difference":-38.1097768,"STFIPS":"42","STR_ADD":"PATTISON AVE AND BROAD ST","RTS_SRVD":"BROAD STREET LINE","CITY":"PHILADELPHIA","UZA":"PHILADELPHIA, PA-NJ-DE-MD","UACODE":"69076","ZIPCODE":"19145","STATUS":3,"SOURCE":"DOT","VERSION":"03","REVISION":null},"geometry":{"type":"Point","coordinates":[-75.1736248,39.9053684]}},{"type":"Feature","properties":{"STATION":"RACE-VINE","difference":10.8880808,"STFIPS":"42","STR_ADD":"RACE AND BROAD ST","RTS_SRVD":"BROAD STREET LINE","CITY":"PHILADELPHIA","UZA":"PHILADELPHIA, PA-NJ-DE-MD","UACODE":"69076","ZIPCODE":"19102","STATUS":3,"SOURCE":"DOT","VERSION":"03","REVISION":null},"geometry":{"type":"Point","coordinates":[-75.1625058,39.9570108]}},{"type":"Feature","properties":{"STATION":"SNYDER","difference":16.6398603,"STFIPS":"42","STR_ADD":"SNYDER AVE AND BROAD ST","RTS_SRVD":"BROAD STREET LINE","CITY":"PHILADELPHIA","UZA":"PHILADELPHIA, PA-NJ-DE-MD","UACODE":"69076","ZIPCODE":"19145","STATUS":3,"SOURCE":"DOT","VERSION":"03","REVISION":null},"geometry":{"type":"Point","coordinates":[-75.1697394,39.9243066]}},{"type":"Feature","properties":{"STATION":"SOMERSET","difference":-2.0800299,"STFIPS":"42","STR_ADD":"SMERSET ST AND KENSINGTON AVE","RTS_SRVD":"MARKET-FRANKFORD LINE","CITY":"PHILADELPHIA","UZA":"PHILADELPHIA, PA-NJ-DE-MD","UACODE":"69076","ZIPCODE":"19134","STATUS":3,"SOURCE":"DOT","VERSION":"03","REVISION":null},"geometry":{"type":"Point","coordinates":[-75.1223948,39.991471]}},{"type":"Feature","properties":{"STATION":"SPRING GARDEN","difference":-1.0453737,"STFIPS":"42","STR_ADD":"SPRING GARDEN ST AND I-95","RTS_SRVD":"MARKET-FRANKFORD LINE","CITY":"PHILADELPHIA","UZA":"PHILADELPHIA, PA-NJ-DE-MD","UACODE":"69076","ZIPCODE":"19123","STATUS":3,"SOURCE":"DOT","VERSION":"03","REVISION":null},"geometry":{"type":"Point","coordinates":[-75.1402783,39.960607]}},{"type":"Feature","properties":{"STATION":"SPRING GARDEN (BROAD STREET)","difference":-7.2145961,"STFIPS":"42","STR_ADD":"SPRING GARDEN AND BROAD ST","RTS_SRVD":"BROAD STREET LINE","CITY":"PHILADELPHIA","UZA":"PHILADELPHIA, PA-NJ-DE-MD","UACODE":"69076","ZIPCODE":"19130","STATUS":3,"SOURCE":"DOT","VERSION":"03","REVISION":null},"geometry":{"type":"Point","coordinates":[-75.1613718,39.9623863]}},{"type":"Feature","properties":{"STATION":"SUSQUEHANNA-DAUPHIN","difference":2.3453292,"STFIPS":"42","STR_ADD":"SUSQUEHANNA AVE AND BROAD ST","RTS_SRVD":"BROAD STREET LINE","CITY":"PHILADELPHIA","UZA":"PHILADELPHIA, PA-NJ-DE-MD","UACODE":"69076","ZIPCODE":"19132","STATUS":3,"SOURCE":"DOT","VERSION":"03","REVISION":null},"geometry":{"type":"Point","coordinates":[-75.1560289,39.9871682]}},{"type":"Feature","properties":{"STATION":"TASKER-MORRIS","difference":44.566434,"STFIPS":"42","STR_ADD":"MORRIS AND BROAD ST","RTS_SRVD":"BROAD STREET LINE","CITY":"PHILADELPHIA","UZA":"PHILADELPHIA, PA-NJ-DE-MD","UACODE":"69076","ZIPCODE":"19145","STATUS":3,"SOURCE":"DOT","VERSION":"03","REVISION":null},"geometry":{"type":"Point","coordinates":[-75.1686727,39.9292315]}},{"type":"Feature","properties":{"STATION":"TIOGA","difference":-7.3604639,"STFIPS":"42","STR_ADD":"TIOGA ST AND KENSINGTON AVE","RTS_SRVD":"MARKET-FRANKFORD LINE","CITY":"PHILADELPHIA","UZA":"PHILADELPHIA, PA-NJ-DE-MD","UACODE":"69076","ZIPCODE":"19134","STATUS":3,"SOURCE":"DOT","VERSION":"03","REVISION":null},"geometry":{"type":"Point","coordinates":[-75.1065409,40.0002641]}},{"type":"Feature","properties":{"STATION":"WALNUT-LOCUST","difference":-5.2443603,"STFIPS":"42","STR_ADD":"LOCUST AND BROAD ST","RTS_SRVD":"BROAD STREET LINE","CITY":"PHILADELPHIA","UZA":"PHILADELPHIA, PA-NJ-DE-MD","UACODE":"69076","ZIPCODE":"19102","STATUS":3,"SOURCE":"DOT","VERSION":"03","REVISION":null},"geometry":{"type":"Point","coordinates":[-75.1644668,39.9481165]}},{"type":"Feature","properties":{"STATION":"WYOMING","difference":4.8499482,"STFIPS":"42","STR_ADD":"WYOMING AVE AND BROAD ST","RTS_SRVD":"BROAD STREET LINE","CITY":"PHILADELPHIA","UZA":"PHILADELPHIA, PA-NJ-DE-MD","UACODE":"69076","ZIPCODE":"19140","STATUS":3,"SOURCE":"DOT","VERSION":"03","REVISION":null},"geometry":{"type":"Point","coordinates":[-75.1480082,40.024317]}},{"type":"Feature","properties":{"STATION":"YORK-DAUPHIN","difference":14.5852849,"STFIPS":"42","STR_ADD":"DAUPHIN AND FRONT ST","RTS_SRVD":"MARKET-FRANKFORD LINE","CITY":"PHILADELPHIA","UZA":"PHILADELPHIA, PA-NJ-DE-MD","UACODE":"69076","ZIPCODE":"19133","STATUS":3,"SOURCE":"DOT","VERSION":"03","REVISION":null},"geometry":{"type":"Point","coordinates":[-75.1319463,39.9855701]}}]}